{
"type": "FeatureCollection",
"name": "bs_T450 Beranang-Bandar Kajang Cheras",
"crs": { "type": "name", "properties": { "name": "urn:ogc:def:crs:OGC:1.3:CRS84" } },
"features": [
{ "type": "Feature", "properties": { "id": null, "bs_name": "HENTIAN PEKAN BERANANG" }, "geometry": { "type": "Point", "coordinates": [ 101.870665349302968, 2.872444322432305 ] } },
{ "type": "Feature", "properties": { "id": null, "bs_name": "KJ600 KOMPLEKS PENGHULU MUKIM BERANANG" }, "geometry": { "type": "Point", "coordinates": [ 101.872046467475727, 2.874500656051154 ] } },
{ "type": "Feature", "properties": { "id": null, "bs_name": "KJ601 KG MACHANG HILIR" }, "geometry": { "type": "Point", "coordinates": [ 101.872457213416922, 2.875839823224259 ] } },
{ "type": "Feature", "properties": { "id": null, "bs_name": "KJ602 KG SESAPAN BUKIT REMBAU" }, "geometry": { "type": "Point", "coordinates": [ 101.872009671596672, 2.878118243385192 ] } },
{ "type": "Feature", "properties": { "id": null, "bs_name": "KJ603 JLN SASAPAN KELUBI" }, "geometry": { "type": "Point", "coordinates": [ 101.871157117357541, 2.880882387299545 ] } },
{ "type": "Feature", "properties": { "id": null, "bs_name": "KJ604 KG SESAPAN KELUBI (UTARA)" }, "geometry": { "type": "Point", "coordinates": [ 101.870449198160159, 2.885629527709279 ] } },
{ "type": "Feature", "properties": { "id": null, "bs_name": "KJ605 TAMAN PERINDUSTRIAN MAHKOTA" }, "geometry": { "type": "Point", "coordinates": [ 101.870460281818282, 2.889791129184657 ] } },
{ "type": "Feature", "properties": { "id": null, "bs_name": "KJ606 TAMAN PKNS BERANANG" }, "geometry": { "type": "Point", "coordinates": [ 101.870396725296942, 2.892373434708491 ] } },
{ "type": "Feature", "properties": { "id": null, "bs_name": "KJ608 SEMENYIH PARKLANDS" }, "geometry": { "type": "Point", "coordinates": [ 101.869001350240467, 2.896276928145442 ] } },
{ "type": "Feature", "properties": { "id": null, "bs_name": "KJ609 KOLEJ PROFESIONAL MARA" }, "geometry": { "type": "Point", "coordinates": [ 101.86709887786364, 2.903922321691665 ] } },
{ "type": "Feature", "properties": { "id": null, "bs_name": "KJ610 KOLEJ TINGGI MARA JAPAN" }, "geometry": { "type": "Point", "coordinates": [ 101.863640698881312, 2.905505685443746 ] } },
{ "type": "Feature", "properties": { "id": null, "bs_name": "KJ612 PANGSAPURI BAIDURI BLOK H" }, "geometry": { "type": "Point", "coordinates": [ 101.862199080753456, 2.903410243784601 ] } },
{ "type": "Feature", "properties": { "id": null, "bs_name": "KJ615 KOLEJ TINGGI MARA JAPAN (OPP)" }, "geometry": { "type": "Point", "coordinates": [ 101.863798020324282, 2.905721680675849 ] } },
{ "type": "Feature", "properties": { "id": null, "bs_name": "KJ616 PUSAT KEMAHIRAN MARA BERANANG" }, "geometry": { "type": "Point", "coordinates": [ 101.866410956738349, 2.906492885727156 ] } },
{ "type": "Feature", "properties": { "id": null, "bs_name": "KJ618 BANDAR TASIK KESUMA FASA 4" }, "geometry": { "type": "Point", "coordinates": [ 101.863822071740145, 2.913850308249838 ] } },
{ "type": "Feature", "properties": { "id": null, "bs_name": "KJ619 PELANGI SEMENYIH 2" }, "geometry": { "type": "Point", "coordinates": [ 101.863101945930083, 2.915575891728166 ] } },
{ "type": "Feature", "properties": { "id": null, "bs_name": "KJ620 TAMAN MUTIARA RINCHING" }, "geometry": { "type": "Point", "coordinates": [ 101.861869524701547, 2.920255773897729 ] } },
{ "type": "Feature", "properties": { "id": null, "bs_name": "KJ621 SJKT LADANG RINCHING" }, "geometry": { "type": "Point", "coordinates": [ 101.860378940350941, 2.922989663097182 ] } },
{ "type": "Feature", "properties": { "id": null, "bs_name": "KJ622 SETIA ECOHILL MALL" }, "geometry": { "type": "Point", "coordinates": [ 101.857434269907159, 2.925481810650295 ] } },
{ "type": "Feature", "properties": { "id": null, "bs_name": "(M) KJ623 LOTUS SEMENYIH (OPP)" }, "geometry": { "type": "Point", "coordinates": [ 101.855208016871345, 2.930615186587963 ] } },
{ "type": "Feature", "properties": { "id": null, "bs_name": "KJ624 SEKSYEN 4 SEMENYIH" }, "geometry": { "type": "Point", "coordinates": [ 101.854033005751887, 2.932680132610134 ] } },
{ "type": "Feature", "properties": { "id": null, "bs_name": "KJ626 KG SENTOSA" }, "geometry": { "type": "Point", "coordinates": [ 101.847900031093843, 2.945797810910203 ] } },
{ "type": "Feature", "properties": { "id": null, "bs_name": "KJ630 DEWAN KOMUNITI SEMENYIH" }, "geometry": { "type": "Point", "coordinates": [ 101.846288631419114, 2.949054896936124 ] } },
{ "type": "Feature", "properties": { "id": null, "bs_name": "KJ631 SK SEMENYIH" }, "geometry": { "type": "Point", "coordinates": [ 101.845561091031684, 2.950409223648642 ] } },
{ "type": "Feature", "properties": { "id": null, "bs_name": "KJ632 TAMAN SEMENYIH" }, "geometry": { "type": "Point", "coordinates": [ 101.844644378437806, 2.952644141812558 ] } },
{ "type": "Feature", "properties": { "id": null, "bs_name": "KJ633 TAMAN DESA SEMENYIH" }, "geometry": { "type": "Point", "coordinates": [ 101.843809409656515, 2.955741495350327 ] } },
{ "type": "Feature", "properties": { "id": null, "bs_name": "KJ634 TAMAN AIN ANN/VISTA VALLEY" }, "geometry": { "type": "Point", "coordinates": [ 101.839980238214508, 2.958633643881142 ] } },
{ "type": "Feature", "properties": { "id": null, "bs_name": "KJ489 BANDAR TEKNOLOGI KAJANG" }, "geometry": { "type": "Point", "coordinates": [ 101.830543689808522, 2.973849551194377 ] } },
{ "type": "Feature", "properties": { "id": null, "bs_name": "KJ498 KLINIK KESIHATAN KAJANG (OPP)" }, "geometry": { "type": "Point", "coordinates": [ 101.825620548407102, 2.977990661501763 ] } },
{ "type": "Feature", "properties": { "id": null, "bs_name": "KJ499 TAMAN MAJU KAJANG" }, "geometry": { "type": "Point", "coordinates": [ 101.820045420880547, 2.979722002089893 ] } },
{ "type": "Feature", "properties": { "id": null, "bs_name": "KJ500 KAJANG PRIMA" }, "geometry": { "type": "Point", "coordinates": [ 101.815768139724142, 2.983649329366229 ] } },
{ "type": "Feature", "properties": { "id": null, "bs_name": "KJ501 KOLEJ VOKASIONAL" }, "geometry": { "type": "Point", "coordinates": [ 101.812449794483157, 2.985789856498244 ] } },
{ "type": "Feature", "properties": { "id": null, "bs_name": "KJ502 TAMAN DAMAI INDAH" }, "geometry": { "type": "Point", "coordinates": [ 101.80751219396646, 2.98730843594158 ] } },
{ "type": "Feature", "properties": { "id": null, "bs_name": "KJ503 TAMAN ZAMRUD KAJANG" }, "geometry": { "type": "Point", "coordinates": [ 101.803759741960391, 2.988031361427249 ] } },
{ "type": "Feature", "properties": { "id": null, "bs_name": "KJ504 TAMAN LEMBAH MEWAH" }, "geometry": { "type": "Point", "coordinates": [ 101.800238958088201, 2.990013505075968 ] } },
{ "type": "Feature", "properties": { "id": null, "bs_name": "KJ505 KOMPLEKS METRO POINT" }, "geometry": { "type": "Point", "coordinates": [ 101.794455088324824, 2.991964792102408 ] } },
{ "type": "Feature", "properties": { "id": null, "bs_name": "KJ506 PEJABAT AIR SELANGOR" }, "geometry": { "type": "Point", "coordinates": [ 101.793034474103422, 2.992455834399451 ] } },
{ "type": "Feature", "properties": { "id": null, "bs_name": "KJ507 KOMERSIAL BANDAR KAJANG" }, "geometry": { "type": "Point", "coordinates": [ 101.790110914201648, 2.992980300927611 ] } },
{ "type": "Feature", "properties": { "id": null, "bs_name": "KJ508 PEKAN KAJANG" }, "geometry": { "type": "Point", "coordinates": [ 101.787892099614382, 2.991939175470092 ] } },
{ "type": "Feature", "properties": { "id": null, "bs_name": "KJ822 MRT STADIUM KAJANG" }, "geometry": { "type": "Point", "coordinates": [ 101.786336270292679, 2.993971177755578 ] } },
{ "type": "Feature", "properties": { "id": null, "bs_name": "KJ472 KOMERSIAL BANDAR KAJANG" }, "geometry": { "type": "Point", "coordinates": [ 101.790145495724275, 2.993136012308011 ] } },
{ "type": "Feature", "properties": { "id": null, "bs_name": "KJ473 HOSPITAL KAJANG" }, "geometry": { "type": "Point", "coordinates": [ 101.79334565642624, 2.992618668045612 ] } },
{ "type": "Feature", "properties": { "id": null, "bs_name": "KJ479 KOMPLEKS METRO POINT (OPP)" }, "geometry": { "type": "Point", "coordinates": [ 101.795208974851505, 2.992018001423372 ] } },
{ "type": "Feature", "properties": { "id": null, "bs_name": "KJ480 TAMAN SG JELOK" }, "geometry": { "type": "Point", "coordinates": [ 101.799392875861585, 2.991096621170792 ] } },
{ "type": "Feature", "properties": { "id": null, "bs_name": "KJ481 TAMAN ZAMRUD KAJANG" }, "geometry": { "type": "Point", "coordinates": [ 101.803385309721321, 2.988400894533395 ] } },
{ "type": "Feature", "properties": { "id": null, "bs_name": "KJ482 TAMAN RESTU 7" }, "geometry": { "type": "Point", "coordinates": [ 101.807937138727439, 2.987554136230247 ] } },
{ "type": "Feature", "properties": { "id": null, "bs_name": "KJ483 KOLEJ VOKASIONAL KAJANG" }, "geometry": { "type": "Point", "coordinates": [ 101.813130213720001, 2.985573666933668 ] } },
{ "type": "Feature", "properties": { "id": null, "bs_name": "KJ484 KAJANG PRIMA" }, "geometry": { "type": "Point", "coordinates": [ 101.815160872114674, 2.984248460269049 ] } },
{ "type": "Feature", "properties": { "id": null, "bs_name": "KJ485 TAMAN MAJU KAJANG" }, "geometry": { "type": "Point", "coordinates": [ 101.820769063071452, 2.979749863464932 ] } },
{ "type": "Feature", "properties": { "id": null, "bs_name": "KJ486 KLINIK KESIHATAN KAJANG" }, "geometry": { "type": "Point", "coordinates": [ 101.825980314653279, 2.977992229337451 ] } },
{ "type": "Feature", "properties": { "id": null, "bs_name": "KJ487 BANDAR TEKNOLOGI KAJANG" }, "geometry": { "type": "Point", "coordinates": [ 101.830419759758129, 2.974397528346346 ] } },
{ "type": "Feature", "properties": { "id": null, "bs_name": "KJ571 TAMAN AIK ANN" }, "geometry": { "type": "Point", "coordinates": [ 101.841982373380858, 2.957571610885629 ] } },
{ "type": "Feature", "properties": { "id": null, "bs_name": "KJ572 TAMAN DESA SEMENYIH" }, "geometry": { "type": "Point", "coordinates": [ 101.844044759475665, 2.955729024729146 ] } },
{ "type": "Feature", "properties": { "id": null, "bs_name": "KJ573 TAMAN SEMENYIH" }, "geometry": { "type": "Point", "coordinates": [ 101.844913288776681, 2.952228000652378 ] } },
{ "type": "Feature", "properties": { "id": null, "bs_name": "KJ574 KOMPLEKS PENGHULU SEMENYIH" }, "geometry": { "type": "Point", "coordinates": [ 101.845935863943566, 2.950095376091824 ] } },
{ "type": "Feature", "properties": { "id": null, "bs_name": "KJ575 DEWAN KOMUNITI SEMENYIH" }, "geometry": { "type": "Point", "coordinates": [ 101.846486154311577, 2.948919293959154 ] } },
{ "type": "Feature", "properties": { "id": null, "bs_name": "KJ576 KG SENTOSA" }, "geometry": { "type": "Point", "coordinates": [ 101.84807852396851, 2.945734704498257 ] } },
{ "type": "Feature", "properties": { "id": null, "bs_name": "KJ577 PETRON SEMENYIH" }, "geometry": { "type": "Point", "coordinates": [ 101.850933653682702, 2.938290994263444 ] } },
{ "type": "Feature", "properties": { "id": null, "bs_name": "KJ578 TAMAN PELANGI SEMENYIH" }, "geometry": { "type": "Point", "coordinates": [ 101.854202638171117, 2.932979758879846 ] } },
{ "type": "Feature", "properties": { "id": null, "bs_name": "(M) KJ579 LOTUS SEMENYIH" }, "geometry": { "type": "Point", "coordinates": [ 101.855896647846563, 2.930070885334871 ] } },
{ "type": "Feature", "properties": { "id": null, "bs_name": "KJ580 ECONSAVE RINCHING" }, "geometry": { "type": "Point", "coordinates": [ 101.85748977501342, 2.926204863374703 ] } },
{ "type": "Feature", "properties": { "id": null, "bs_name": "KJ581 ASCOTTE BOULEVARD" }, "geometry": { "type": "Point", "coordinates": [ 101.860694309929372, 2.922782880908648 ] } },
{ "type": "Feature", "properties": { "id": null, "bs_name": "KJ582 TAMAN MUTIARA RINCHING" }, "geometry": { "type": "Point", "coordinates": [ 101.862797133559724, 2.918763684033455 ] } },
{ "type": "Feature", "properties": { "id": null, "bs_name": "KJ583 PELANGI SEMENYIH 2" }, "geometry": { "type": "Point", "coordinates": [ 101.86320657773436, 2.915935269324498 ] } },
{ "type": "Feature", "properties": { "id": null, "bs_name": "KJ584 BANDAR TASIK KESUMA FASA 4" }, "geometry": { "type": "Point", "coordinates": [ 101.864096982808135, 2.913901023977417 ] } },
{ "type": "Feature", "properties": { "id": null, "bs_name": "KJ585 PERUMAHAN BANDAR TASIK KESUMA" }, "geometry": { "type": "Point", "coordinates": [ 101.865731819266671, 2.909665976547334 ] } },
{ "type": "Feature", "properties": { "id": null, "bs_name": "KJ587 KOLEJ PROFESIONAL MARA (OPP)" }, "geometry": { "type": "Point", "coordinates": [ 101.867494395822376, 2.903660550337082 ] } },
{ "type": "Feature", "properties": { "id": null, "bs_name": "KJ588 SEMENYIH PARKLANDS" }, "geometry": { "type": "Point", "coordinates": [ 101.869177657282194, 2.896625463846679 ] } },
{ "type": "Feature", "properties": { "id": null, "bs_name": "KJ589 PEJABAT PERTUBUHAN PELADANG" }, "geometry": { "type": "Point", "coordinates": [ 101.869943359765344, 2.894280646868577 ] } },
{ "type": "Feature", "properties": { "id": null, "bs_name": "KJ590 TAMAN PKNS BERANANG" }, "geometry": { "type": "Point", "coordinates": [ 101.87090222727619, 2.891283380338752 ] } },
{ "type": "Feature", "properties": { "id": null, "bs_name": "KJ592 KG SESAPAN KELUBI (UTARA)" }, "geometry": { "type": "Point", "coordinates": [ 101.870620251735829, 2.885796926614689 ] } },
{ "type": "Feature", "properties": { "id": null, "bs_name": "KJ594 KG SESAPAN BUKIT REMBAU" }, "geometry": { "type": "Point", "coordinates": [ 101.872120253511596, 2.878218178188066 ] } },
{ "type": "Feature", "properties": { "id": null, "bs_name": "KJ595 KG MACHANG HILIR" }, "geometry": { "type": "Point", "coordinates": [ 101.872551423353059, 2.875232052205673 ] } },
{ "type": "Feature", "properties": { "id": null, "bs_name": "KJ596 SRA INTEGRASI PEKAN BERANANG (OPP)" }, "geometry": { "type": "Point", "coordinates": [ 101.871933009805844, 2.874208814813674 ] } }
]
}
